[
  {
    "Id": 1,
    "name": "Dr. Sarah Chen",
    "specialty": ["Functional Medicine", "Chronic Pain Management"],
    "location": {
      "city": "San Francisco",
      "state": "CA",
      "zipCode": "94102",
      "address": "1234 Market Street, Suite 200"
    },
    "bio": "Dr. Chen specializes in functional medicine approaches to chronic pain, focusing on root cause analysis and personalized treatment plans. With over 15 years of experience, she combines traditional medicine with holistic practices.",
    "credentials": ["MD", "IFM Certified Practitioner", "Board Certified Internal Medicine"],
    "services": ["Functional Medicine Consultation", "Nutritional Therapy", "Supplement Protocol Design", "Chronic Pain Management"],
    "insurance": ["Blue Cross Blue Shield", "Aetna", "United Healthcare"],
    "rating": 4.8,
    "availability": {
      "nextAvailable": "2024-02-15",
      "waitTime": "2-3 weeks"
    },
    "photo": "https://images.unsplash.com/photo-1559839734-2b71ea197ec2?w=300&h=300&fit=crop&crop=face",
    "contactInfo": {
      "phone": "(415) 555-0123",
      "email": "info@drchen.com",
      "website": "https://drchen.com"
    }
  },
  {
    "Id": 2,
    "name": "Dr. Michael Torres",
    "specialty": ["Chiropractic Care", "Sports Medicine"],
    "location": {
      "city": "Austin",
      "state": "TX",
      "zipCode": "78701",
      "address": "567 Congress Avenue, Suite 100"
    },
    "bio": "Dr. Torres combines chiropractic care with advanced movement therapy to help patients overcome chronic pain and improve mobility. He specializes in treating athletes and active individuals.",
    "credentials": ["DC", "CCSP", "ART Certified"],
    "services": ["Chiropractic Adjustment", "Active Release Technique", "Movement Assessment", "Sports Injury Rehabilitation"],
    "insurance": ["Cigna", "Humana", "Blue Cross Blue Shield"],
    "rating": 4.9,
    "availability": {
      "nextAvailable": "2024-02-10",
      "waitTime": "1-2 weeks"
    },
    "photo": "https://images.unsplash.com/photo-1612349317150-e413f6a5b16d?w=300&h=300&fit=crop&crop=face",
    "contactInfo": {
      "phone": "(512) 555-0456",
      "email": "contact@drtorres.com",
      "website": "https://drtorres.com"
    }
  },
  {
    "Id": 3,
    "name": "Lisa Rodriguez, RN",
    "specialty": ["Health Coaching", "Nutrition"],
    "location": {
      "city": "Denver",
      "state": "CO",
      "zipCode": "80202",
      "address": "890 16th Street Mall, Suite 300"
    },
    "bio": "Lisa is a registered nurse turned health coach who specializes in helping patients with chronic conditions develop sustainable lifestyle changes. She focuses on nutrition, stress management, and behavioral change.",
    "credentials": ["RN", "NBC-HWC", "Certified Nutrition Specialist"],
    "services": ["Health Coaching", "Nutritional Counseling", "Meal Planning", "Stress Management"],
    "insurance": ["Self-pay", "HSA/FSA Accepted"],
    "rating": 4.7,
    "availability": {
      "nextAvailable": "2024-02-08",
      "waitTime": "1 week"
    },
    "photo": "https://images.unsplash.com/photo-1594824475863-15ffd0c26c64?w=300&h=300&fit=crop&crop=face",
    "contactInfo": {
      "phone": "(303) 555-0789",
      "email": "lisa@wellnesscoaching.com",
      "website": "https://wellnesscoaching.com"
    }
  },
  {
    "Id": 4,
    "name": "Dr. James Kim",
    "specialty": ["Acupuncture", "Traditional Chinese Medicine"],
    "location": {
      "city": "Seattle",
      "state": "WA",
      "zipCode": "98101",
      "address": "123 Pine Street, Suite 400"
    },
    "bio": "Dr. Kim brings over 20 years of experience in Traditional Chinese Medicine and acupuncture. He specializes in treating chronic pain, digestive issues, and stress-related conditions using ancient healing techniques.",
    "credentials": ["LAc", "DAOM", "NCCAOM Certified"],
    "services": ["Acupuncture", "Herbal Medicine", "Cupping Therapy", "Moxibustion"],
    "insurance": ["Premera", "Regence", "United Healthcare"],
    "rating": 4.8,
    "availability": {
      "nextAvailable": "2024-02-12",
      "waitTime": "2 weeks"
    },
    "photo": "https://images.unsplash.com/photo-1582750433449-648ed127bb54?w=300&h=300&fit=crop&crop=face",
    "contactInfo": {
      "phone": "(206) 555-0234",
      "email": "dr.kim@tcmclinic.com",
      "website": "https://tcmclinic.com"
    }
  },
  {
    "Id": 5,
    "name": "Dr. Amanda White",
    "specialty": ["Naturopathic Medicine", "Women's Health"],
    "location": {
      "city": "Portland",
      "state": "OR",
      "zipCode": "97205",
      "address": "456 NW 23rd Avenue, Suite 200"
    },
    "bio": "Dr. White is a naturopathic physician specializing in women's health and hormonal balance. She uses a combination of botanical medicine, nutrition, and lifestyle counseling to address root causes of health issues.",
    "credentials": ["ND", "FABNO", "IFM Certified"],
    "services": ["Naturopathic Medicine", "Hormone Balancing", "Botanical Medicine", "Detoxification Programs"],
    "insurance": ["Kaiser Permanente", "Providence", "Self-pay"],
    "rating": 4.9,
    "availability": {
      "nextAvailable": "2024-02-20",
      "waitTime": "3-4 weeks"
    },
    "photo": "https://images.unsplash.com/photo-1559839734-2b71ea197ec2?w=300&h=300&fit=crop&crop=face",
    "contactInfo": {
      "phone": "(503) 555-0567",
      "email": "dr.white@naturalmedicine.com",
      "website": "https://naturalmedicine.com"
    }
  },
  {
    "Id": 6,
    "name": "Marcus Johnson, LMT",
    "specialty": ["Massage Therapy", "Myofascial Release"],
    "location": {
      "city": "Phoenix",
      "state": "AZ",
      "zipCode": "85004",
      "address": "789 Central Avenue, Suite 150"
    },
    "bio": "Marcus is a licensed massage therapist with extensive training in myofascial release and trigger point therapy. He works closely with healthcare providers to support patients' recovery from chronic pain conditions.",
    "credentials": ["LMT", "MFR Certified", "Trigger Point Certified"],
    "services": ["Therapeutic Massage", "Myofascial Release", "Trigger Point Therapy", "Sports Massage"],
    "insurance": ["HSA/FSA Accepted", "Self-pay"],
    "rating": 4.6,
    "availability": {
      "nextAvailable": "2024-02-05",
      "waitTime": "Less than 1 week"
    },
    "photo": "https://images.unsplash.com/photo-1607990281513-2c110a25bd8c?w=300&h=300&fit=crop&crop=face",
    "contactInfo": {
      "phone": "(602) 555-0890",
      "email": "marcus@therapeutictouch.com",
      "website": "https://therapeutictouch.com"
    }
  }
]